{
  "type": "FeatureCollection",
  "generator": "overpass-turbo",
  "copyright": "The data included in this document is from www.openstreetmap.org. The data is made available under ODbL.",
  "timestamp": "2025-12-01T10:59:15Z",
  "features": [
    {
      "type": "Feature",
      "properties": {
        "@id": "relation/2812898",
        "colour": "#152234",
        "description": "351-mile (565 km) Amtrak regional passenger train route serving communities on the coast of Southern California between San Diego and San Luis Obispo",
        "from": "San Diego",
        "name": "Amtrak Pacific Surfliner: San Diego => San Luis Obispo",
        "network": "Amtrak",
        "network:wikidata": "Q23239",
        "network:wikipedia": "en:Amtrak",
        "operator": "LOSSAN Rail Corridor Agency",
        "passenger": "regional",
        "public_transport:version": "2",
        "ref": "Pacific Surfliner",
        "route": "train",
        "service": "long_distance",
        "source": "http://octa.net/LOSSAN-Rail-Corridor-Agency/Overview/;https://www.pacificsurfliner.com/about/",
        "to": "San Luis Obispo",
        "trip_ref": "761;777",
        "type": "route",
        "@geometry": "center"
      },
      "geometry": {
        "type": "Point",
        "coordinates": [
          -118.912788,
          33.9968974
        ]
      },
      "id": "relation/2812898"
    },
    {
      "type": "Feature",
      "properties": {
        "@id": "relation/2812900",
        "colour": "#191970",
        "from": "Seattle King Street",
        "name": "Amtrak Coast Starlight: Seattle => Los Angeles",
        "network": "Amtrak",
        "network:wikidata": "Q23239",
        "network:wikipedia": "en:Amtrak",
        "operator": "Amtrak",
        "operator:wikidata": "Q23239",
        "operator:wikipedia": "en:Amtrak",
        "passenger": "national",
        "public_transport:version": "2",
        "ref": "Coast Starlight",
        "route": "train",
        "service": "night",
        "to": "Los Angeles Union Station",
        "trip_ref": "11",
        "type": "route",
        "wikidata": "Q225313",
        "wikipedia": "en:Coast Starlight",
        "@geometry": "center"
      },
      "geometry": {
        "type": "Point",
        "coordinates": [
          -120.7132945,
          40.8266617
        ]
      },
      "id": "relation/2812900"
    },
    {
      "type": "Feature",
      "properties": {
        "@id": "relation/6111610",
        "brand": "Motel 6",
        "brand:wikidata": "Q2188884",
        "building": "yes",
        "name": "Motel 6 Santa Barbara - State Street",
        "tourism": "motel",
        "type": "multipolygon",
        "@geometry": "center"
      },
      "geometry": {
        "type": "Point",
        "coordinates": [
          -119.7389776,
          34.4397746
        ]
      },
      "id": "relation/6111610"
    },
    {
      "type": "Feature",
      "properties": {
        "@id": "relation/6111611",
        "building": "yes",
        "name": "Oasis Inn & Suites",
        "tourism": "motel",
        "type": "multipolygon",
        "@geometry": "center"
      },
      "geometry": {
        "type": "Point",
        "coordinates": [
          -119.736281,
          34.4406858
        ]
      },
      "id": "relation/6111611"
    },
    {
      "type": "Feature",
      "properties": {
        "@id": "relation/6111612",
        "building": "yes",
        "name": "Agave Inn",
        "tourism": "motel",
        "type": "multipolygon",
        "@geometry": "center"
      },
      "geometry": {
        "type": "Point",
        "coordinates": [
          -119.7331498,
          34.4407155
        ]
      },
      "id": "relation/6111612"
    },
    {
      "type": "Feature",
      "properties": {
        "@id": "relation/11897311",
        "colour": "#152234",
        "description": "351-mile (565 km) Amtrak regional passenger train route serving communities on the coast of Southern California between San Diego and San Luis Obispo",
        "from": "San Luis Obispo",
        "name": "Amtrak Pacific Surfliner: San Luis Obispo => San Diego",
        "network": "Amtrak",
        "network:wikidata": "Q23239",
        "network:wikipedia": "en:Amtrak",
        "operator": "Amtrak California",
        "passenger": "regional",
        "public_transport:version": "2",
        "ref": "Pacific Surfliner",
        "route": "train",
        "service": "long_distance",
        "to": "San Diego",
        "trip_ref": "774",
        "type": "route",
        "@geometry": "center"
      },
      "geometry": {
        "type": "Point",
        "coordinates": [
          -118.9127962,
          33.9968974
        ]
      },
      "id": "relation/11897311"
    },
    {
      "type": "Feature",
      "properties": {
        "@id": "relation/12074397",
        "colour": "#191970",
        "from": "Los Angeles Union Station",
        "name": "Amtrak Coast Starlight: Los Angeles => Seattle",
        "network": "Amtrak",
        "network:wikidata": "Q23239",
        "network:wikipedia": "en:Amtrak",
        "operator": "Amtrak",
        "operator:wikidata": "Q23239",
        "operator:wikipedia": "en:Amtrak",
        "passenger": "national",
        "public_transport:version": "2",
        "ref": "Coast Starlight",
        "route": "train",
        "service": "night",
        "to": "Seattle King Street",
        "trip_ref": "14",
        "type": "route",
        "@geometry": "center"
      },
      "geometry": {
        "type": "Point",
        "coordinates": [
          -120.7132657,
          40.8266617
        ]
      },
      "id": "relation/12074397"
    },
    {
      "type": "Feature",
      "properties": {
        "@id": "relation/13045621",
        "addr:city": "Santa Barbara",
        "addr:housenumber": "125",
        "addr:postcode": "93101",
        "addr:state": "CA",
        "addr:street": "State Street",
        "building": "museum",
        "building:levels": "2",
        "check_date": "2025-11-25",
        "contact:facebook": "https://www.facebook.com/MOXIsb",
        "contact:instagram": "https://www.instagram.com/moxisb/",
        "contact:linkedin": "https://www.linkedin.com/company/moxi-the-wolf-museum-of-exploration-innovation/",
        "contact:yelp": "https://www.yelp.com/biz/moxi-the-wolf-museum-of-exploration-innovation-santa-barbara",
        "museum": "children",
        "name": "The Wolf Museum of Exploration and Innovation",
        "opening_hours": "10:00-17:00",
        "phone": "+1-805-770-5000",
        "roof:levels": "1",
        "roof:shape": "flat",
        "short_name": "MOXI",
        "toilets:wheelchair": "yes",
        "tourism": "museum",
        "type": "multipolygon",
        "website": "https://www.moxi.org/",
        "wheelchair": "yes",
        "@geometry": "center"
      },
      "geometry": {
        "type": "Point",
        "coordinates": [
          -119.6916801,
          34.4134404
        ]
      },
      "id": "relation/13045621"
    },
    {
      "type": "Feature",
      "properties": {
        "@id": "way/16221522",
        "highway": "service",
        "service": "alley",
        "tiger:cfcc": "A73",
        "tiger:county": "Santa Barbara, CA",
        "tiger:reviewed": "no",
        "@geometry": "center"
      },
      "geometry": {
        "type": "Point",
        "coordinates": [
          -119.7185549,
          34.4154951
        ]
      },
      "id": "way/16221522"
    },
    {
      "type": "Feature",
      "properties": {
        "@id": "way/16221554",
        "highway": "service",
        "service": "alley",
        "tiger:cfcc": "A73",
        "tiger:county": "Santa Barbara, CA",
        "@geometry": "center"
      },
      "geometry": {
        "type": "Point",
        "coordinates": [
          -119.6914373,
          34.4112093
        ]
      },
      "id": "way/16221554"
    },
    {
      "type": "Feature",
      "properties": {
        "@id": "way/16221557",
        "highway": "service",
        "service": "alley",
        "tiger:cfcc": "A73",
        "tiger:county": "Santa Barbara, CA",
        "tiger:reviewed": "no",
        "@geometry": "center"
      },
      "geometry": {
        "type": "Point",
        "coordinates": [
          -119.6926887,
          34.4100737
        ]
      },
      "id": "way/16221557"
    },
    {
      "type": "Feature",
      "properties": {
        "@id": "way/16224880",
        "highway": "service",
        "service": "alley",
        "tiger:cfcc": "A73",
        "tiger:county": "Santa Barbara, CA",
        "@geometry": "center"
      },
      "geometry": {
        "type": "Point",
        "coordinates": [
          -119.7257092,
          34.432276
        ]
      },
      "id": "way/16224880"
    },
    {
      "type": "Feature",
      "properties": {
        "@id": "way/16224881",
        "highway": "service",
        "service": "alley",
        "tiger:cfcc": "A73",
        "tiger:county": "Santa Barbara, CA",
        "@geometry": "center"
      },
      "geometry": {
        "type": "Point",
        "coordinates": [
          -119.7255718,
          34.4308533
        ]
      },
      "id": "way/16224881"
    },
    {
      "type": "Feature",
      "properties": {
        "@id": "way/16224886",
        "highway": "service",
        "service": "alley",
        "surface": "asphalt",
        "tiger:cfcc": "A73",
        "tiger:county": "Santa Barbara, CA",
        "@geometry": "center"
      },
      "geometry": {
        "type": "Point",
        "coordinates": [
          -119.7243571,
          34.4314356
        ]
      },
      "id": "way/16224886"
    },
    {
      "type": "Feature",
      "properties": {
        "@id": "way/16227542",
        "highway": "service",
        "service": "alley",
        "tiger:cfcc": "A73",
        "tiger:county": "Santa Barbara, CA",
        "tiger:reviewed": "no",
        "@geometry": "center"
      },
      "geometry": {
        "type": "Point",
        "coordinates": [
          -119.735581,
          34.4409104
        ]
      },
      "id": "way/16227542"
    },
    {
      "type": "Feature",
      "properties": {
        "@id": "way/16232201",
        "highway": "service",
        "service": "alley",
        "tiger:cfcc": "A73",
        "tiger:county": "Santa Barbara, CA",
        "tiger:reviewed": "no",
        "@geometry": "center"
      },
      "geometry": {
        "type": "Point",
        "coordinates": [
          -119.7317672,
          34.4409551
        ]
      },
      "id": "way/16232201"
    },
    {
      "type": "Feature",
      "properties": {
        "@id": "way/16236840",
        "highway": "service",
        "service": "alley",
        "tiger:cfcc": "A73",
        "tiger:county": "Santa Barbara, CA",
        "@geometry": "center"
      },
      "geometry": {
        "type": "Point",
        "coordinates": [
          -119.7008634,
          34.4277845
        ]
      },
      "id": "way/16236840"
    },
    {
      "type": "Feature",
      "properties": {
        "@id": "way/16244394",
        "highway": "service",
        "service": "alley",
        "tiger:cfcc": "A73",
        "tiger:county": "Santa Barbara, CA",
        "tiger:reviewed": "no",
        "@geometry": "center"
      },
      "geometry": {
        "type": "Point",
        "coordinates": [
          -119.6859675,
          34.422506
        ]
      },
      "id": "way/16244394"
    },
    {
      "type": "Feature",
      "properties": {
        "@id": "way/16245891",
        "highway": "service",
        "service": "alley",
        "tiger:cfcc": "A73",
        "tiger:county": "Santa Barbara, CA",
        "@geometry": "center"
      },
      "geometry": {
        "type": "Point",
        "coordinates": [
          -119.6820917,
          34.4286216
        ]
      },
      "id": "way/16245891"
    },
    {
      "type": "Feature",
      "properties": {
        "@id": "way/16245896",
        "highway": "service",
        "service": "alley",
        "tiger:cfcc": "A73",
        "tiger:county": "Santa Barbara, CA",
        "@geometry": "center"
      },
      "geometry": {
        "type": "Point",
        "coordinates": [
          -119.6978744,
          34.4138088
        ]
      },
      "id": "way/16245896"
    },
    {
      "type": "Feature",
      "properties": {
        "@id": "way/16247067",
        "highway": "service",
        "service": "alley",
        "tiger:cfcc": "A73",
        "tiger:county": "Santa Barbara, CA",
        "tiger:reviewed": "no",
        "@geometry": "center"
      },
      "geometry": {
        "type": "Point",
        "coordinates": [
          -119.7251512,
          34.4345807
        ]
      },
      "id": "way/16247067"
    },
    {
      "type": "Feature",
      "properties": {
        "@id": "way/16247068",
        "highway": "service",
        "service": "alley",
        "tiger:cfcc": "A73",
        "tiger:county": "Santa Barbara, CA",
        "tiger:reviewed": "no",
        "@geometry": "center"
      },
      "geometry": {
        "type": "Point",
        "coordinates": [
          -119.7232128,
          34.4344868
        ]
      },
      "id": "way/16247068"
    },
    {
      "type": "Feature",
      "properties": {
        "@id": "way/16247070",
        "highway": "service",
        "service": "alley",
        "tiger:cfcc": "A73",
        "tiger:county": "Santa Barbara, CA",
        "tiger:reviewed": "no",
        "@geometry": "center"
      },
      "geometry": {
        "type": "Point",
        "coordinates": [
          -119.7252164,
          34.4332345
        ]
      },
      "id": "way/16247070"
    },
    {
      "type": "Feature",
      "properties": {
        "@id": "way/16247080",
        "highway": "service",
        "service": "alley",
        "tiger:cfcc": "A73",
        "tiger:county": "Santa Barbara, CA",
        "tiger:reviewed": "no",
        "@geometry": "center"
      },
      "geometry": {
        "type": "Point",
        "coordinates": [
          -119.7240969,
          34.4337288
        ]
      },
      "id": "way/16247080"
    },
    {
      "type": "Feature",
      "properties": {
        "@id": "way/16247606",
        "highway": "service",
        "service": "alley",
        "tiger:cfcc": "A73",
        "tiger:county": "Santa Barbara, CA",
        "tiger:reviewed": "no",
        "@geometry": "center"
      },
      "geometry": {
        "type": "Point",
        "coordinates": [
          -119.7230302,
          34.4326295
        ]
      },
      "id": "way/16247606"
    },
    {
      "type": "Feature",
      "properties": {
        "@id": "way/16247944",
        "highway": "service",
        "service": "alley",
        "tiger:cfcc": "A73",
        "tiger:county": "Santa Barbara, CA",
        "@geometry": "center"
      },
      "geometry": {
        "type": "Point",
        "coordinates": [
          -119.6996998,
          34.4315235
        ]
      },
      "id": "way/16247944"
    },
    {
      "type": "Feature",
      "properties": {
        "@id": "way/16248543",
        "highway": "service",
        "service": "alley",
        "tiger:cfcc": "A73",
        "tiger:county": "Santa Barbara, CA",
        "tiger:reviewed": "no",
        "@geometry": "center"
      },
      "geometry": {
        "type": "Point",
        "coordinates": [
          -119.721637,
          34.433311
        ]
      },
      "id": "way/16248543"
    },
    {
      "type": "Feature",
      "properties": {
        "@id": "way/16248546",
        "highway": "service",
        "service": "alley",
        "tiger:cfcc": "A73",
        "tiger:county": "Santa Barbara, CA",
        "@geometry": "center"
      },
      "geometry": {
        "type": "Point",
        "coordinates": [
          -119.7174153,
          34.4335858
        ]
      },
      "id": "way/16248546"
    },
    {
      "type": "Feature",
      "properties": {
        "@id": "way/16248552",
        "highway": "service",
        "service": "alley",
        "tiger:cfcc": "A73",
        "tiger:county": "Santa Barbara, CA",
        "tiger:reviewed": "no",
        "@geometry": "center"
      },
      "geometry": {
        "type": "Point",
        "coordinates": [
          -119.723521,
          34.4323115
        ]
      },
      "id": "way/16248552"
    },
    {
      "type": "Feature",
      "properties": {
        "@id": "way/16248787",
        "access": "private",
        "highway": "service",
        "service": "driveway",
        "tiger:cfcc": "A41",
        "tiger:county": "Santa Barbara, CA",
        "tiger:reviewed": "no",
        "@geometry": "center"
      },
      "geometry": {
        "type": "Point",
        "coordinates": [
          -119.73005,
          34.4174755
        ]
      },
      "id": "way/16248787"
    },
    {
      "type": "Feature",
      "properties": {
        "@id": "way/16254312",
        "highway": "service",
        "name": "Chateaux Elise",
        "service": "driveway",
        "tiger:cfcc": "A41",
        "tiger:county": "Santa Barbara, CA",
        "tiger:name_base": "Chateaux Elise",
        "tiger:reviewed": "no",
        "@geometry": "center"
      },
      "geometry": {
        "type": "Point",
        "coordinates": [
          -119.7241059,
          34.3996481
        ]
      },
      "id": "way/16254312"
    },
    {
      "type": "Feature",
      "properties": {
        "@id": "way/16255279",
        "highway": "service",
        "service": "driveway",
        "@geometry": "center"
      },
      "geometry": {
        "type": "Point",
        "coordinates": [
          -119.7450829,
          34.4372619
        ]
      },
      "id": "way/16255279"
    },
    {
      "type": "Feature",
      "properties": {
        "@id": "way/16256168",
        "access": "private",
        "highway": "service",
        "name": "Vista del Pueblo",
        "service": "driveway",
        "tiger:cfcc": "A41",
        "tiger:county": "Santa Barbara, CA",
        "tiger:name_base": "Vista del Pueblo",
        "tiger:reviewed": "no",
        "@geometry": "center"
      },
      "geometry": {
        "type": "Point",
        "coordinates": [
          -119.714833,
          34.4111595
        ]
      },
      "id": "way/16256168"
    },
    {
      "type": "Feature",
      "properties": {
        "@id": "way/16256334",
        "highway": "service",
        "service": "parking_aisle",
        "tiger:cfcc": "A41",
        "tiger:county": "Santa Barbara, CA",
        "tiger:name_base": "Botello",
        "tiger:name_type": "Rd",
        "@geometry": "center"
      },
      "geometry": {
        "type": "Point",
        "coordinates": [
          -119.8355409,
          34.4364095
        ]
      },
      "id": "way/16256334"
    },
    {
      "type": "Feature",
      "properties": {
        "@id": "way/16256567",
        "highway": "service",
        "name": "Reef Court",
        "service": "driveway",
        "tiger:cfcc": "A41",
        "tiger:county": "Santa Barbara, CA",
        "tiger:name_base": "Reef",
        "tiger:name_type": "Ct",
        "tiger:reviewed": "no",
        "@geometry": "center"
      },
      "geometry": {
        "type": "Point",
        "coordinates": [
          -119.723505,
          34.3997469
        ]
      },
      "id": "way/16256567"
    },
    {
      "type": "Feature",
      "properties": {
        "@id": "way/16257560",
        "access": "private",
        "highway": "service",
        "name": "Fellowship Road",
        "service": "driveway",
        "tiger:cfcc": "A41",
        "tiger:county": "Santa Barbara, CA",
        "tiger:name_base": "Fellowship",
        "tiger:name_type": "Rd",
        "tiger:reviewed": "no",
        "@geometry": "center"
      },
      "geometry": {
        "type": "Point",
        "coordinates": [
          -119.722615,
          34.4108745
        ]
      },
      "id": "way/16257560"
    },
    {
      "type": "Feature",
      "properties": {
        "@id": "way/16257717",
        "highway": "service",
        "name": "Braemar Drive",
        "service": "driveway",
        "tiger:cfcc": "A41",
        "tiger:county": "Santa Barbara, CA",
        "tiger:name_base": "Braemar",
        "tiger:name_type": "Dr",
        "tiger:reviewed": "no",
        "@geometry": "center"
      },
      "geometry": {
        "type": "Point",
        "coordinates": [
          -119.7496263,
          34.4075491
        ]
      },
      "id": "way/16257717"
    },
    {
      "type": "Feature",
      "properties": {
        "@id": "way/16258004",
        "access": "private",
        "highway": "service",
        "name": "Hacienda Court",
        "service": "driveway",
        "tiger:cfcc": "A41",
        "tiger:county": "Santa Barbara, CA",
        "tiger:name_base": "Hacienda",
        "tiger:name_type": "Ct",
        "tiger:reviewed": "no",
        "@geometry": "center"
      },
      "geometry": {
        "type": "Point",
        "coordinates": [
          -119.734199,
          34.425529
        ]
      },
      "id": "way/16258004"
    },
    {
      "type": "Feature",
      "properties": {
        "@id": "way/16259194",
        "highway": "service",
        "maxspeed": "15 mph",
        "name": "J Road",
        "service": "parking_aisle",
        "tiger:cfcc": "A41",
        "tiger:county": "Santa Barbara, CA",
        "tiger:name_base": "J",
        "tiger:name_type": "Rd",
        "tiger:reviewed": "no",
        "@geometry": "center"
      },
      "geometry": {
        "type": "Point",
        "coordinates": [
          -119.8524917,
          34.4219005
        ]
      },
      "id": "way/16259194"
    },
    {
      "type": "Feature",
      "properties": {
        "@id": "way/16259601",
        "highway": "service",
        "name": "Orange Avenue",
        "service": "alley",
        "tiger:cfcc": "A41",
        "tiger:county": "Santa Barbara, CA",
        "tiger:name_base": "Orange",
        "tiger:name_type": "Ave",
        "tiger:reviewed": "no",
        "@geometry": "center"
      },
      "geometry": {
        "type": "Point",
        "coordinates": [
          -119.7050878,
          34.4131291
        ]
      },
      "id": "way/16259601"
    },
    {
      "type": "Feature",
      "properties": {
        "@id": "way/16259889",
        "highway": "residential",
        "lanes": "1",
        "name": "Northridge Road",
        "service": "driveway",
        "surface": "asphalt",
        "tiger:cfcc": "A41",
        "tiger:county": "Santa Barbara, CA",
        "tiger:name_base": "Northridge",
        "tiger:name_type": "Rd",
        "tiger:reviewed": "no",
        "@geometry": "center"
      },
      "geometry": {
        "type": "Point",
        "coordinates": [
          -119.7409097,
          34.4586009
        ]
      },
      "id": "way/16259889"
    },
    {
      "type": "Feature",
      "properties": {
        "@id": "way/16260708",
        "access": "private",
        "highway": "service",
        "name": "Calle Bello",
        "service": "driveway",
        "tiger:cfcc": "A41",
        "tiger:county": "Santa Barbara, CA",
        "tiger:name_base": "Calle Bello",
        "tiger:reviewed": "no",
        "@geometry": "center"
      },
      "geometry": {
        "type": "Point",
        "coordinates": [
          -119.6694538,
          34.4345929
        ]
      },
      "id": "way/16260708"
    },
    {
      "type": "Feature",
      "properties": {
        "@id": "way/16260750",
        "highway": "service",
        "name": "Lighthouse Road",
        "oneway": "yes",
        "service": "parking_aisle",
        "source": "Bing",
        "tiger:cfcc": "A41",
        "tiger:county": "Santa Barbara, CA",
        "tiger:name_base": "Lighthouse",
        "tiger:name_type": "Rd",
        "@geometry": "center"
      },
      "geometry": {
        "type": "Point",
        "coordinates": [
          -119.7215658,
          34.3986891
        ]
      },
      "id": "way/16260750"
    },
    {
      "type": "Feature",
      "properties": {
        "@id": "way/16261130",
        "highway": "service",
        "name": "Andrew McFarland Place",
        "oneway": "yes",
        "service": "driveway",
        "tiger:cfcc": "A41",
        "tiger:county": "Santa Barbara, CA",
        "tiger:name_base": "Andrew McFarland",
        "tiger:name_type": "Pl",
        "@geometry": "center"
      },
      "geometry": {
        "type": "Point",
        "coordinates": [
          -119.8359686,
          34.4337894
        ]
      },
      "id": "way/16261130"
    },
    {
      "type": "Feature",
      "properties": {
        "@id": "way/16261999",
        "highway": "service",
        "name": "La Cumbre Plaza Lane",
        "service": "driveway",
        "tiger:cfcc": "A41",
        "tiger:county": "Santa Barbara, CA",
        "tiger:name_base": "La Cumbre Plaza",
        "tiger:name_type": "Ln",
        "tiger:reviewed": "no",
        "@geometry": "center"
      },
      "geometry": {
        "type": "Point",
        "coordinates": [
          -119.7499094,
          34.4388227
        ]
      },
      "id": "way/16261999"
    },
    {
      "type": "Feature",
      "properties": {
        "@id": "way/16263827",
        "highway": "service",
        "name": "Sycamore Avenue",
        "service": "parking_aisle",
        "@geometry": "center"
      },
      "geometry": {
        "type": "Point",
        "coordinates": [
          -119.7155623,
          34.4414244
        ]
      },
      "id": "way/16263827"
    },
    {
      "type": "Feature",
      "properties": {
        "@id": "way/16264324",
        "highway": "service",
        "lanes": "2",
        "service": "parking_aisle",
        "surface": "asphalt",
        "tiger:cfcc": "A41",
        "tiger:county": "Santa Barbara, CA",
        "tiger:name_base": "Adams",
        "tiger:name_type": "Rd",
        "@geometry": "center"
      },
      "geometry": {
        "type": "Point",
        "coordinates": [
          -119.8486597,
          34.4303438
        ]
      },
      "id": "way/16264324"
    },
    {
      "type": "Feature",
      "properties": {
        "@id": "way/16264655",
        "highway": "service",
        "name": "Plaza Drive",
        "oneway": "no",
        "service": "driveway",
        "tiger:cfcc": "A41",
        "tiger:county": "Santa Barbara, CA",
        "tiger:name_base": "Plaza",
        "tiger:name_type": "Dr",
        "tiger:reviewed": "no",
        "@geometry": "center"
      },
      "geometry": {
        "type": "Point",
        "coordinates": [
          -119.7489173,
          34.4403299
        ]
      },
      "id": "way/16264655"
    },
    {
      "type": "Feature",
      "properties": {
        "@id": "way/35130979",
        "highway": "service",
        "oneway": "yes",
        "service": "parking_aisle",
        "@geometry": "center"
      },
      "geometry": {
        "type": "Point",
        "coordinates": [
          -119.7059572,
          34.4388065
        ]
      },
      "id": "way/35130979"
    },
    {
      "type": "Feature",
      "properties": {
        "@id": "way/35130982",
        "building": "office",
        "office": "company",
        "@geometry": "center"
      },
      "geometry": {
        "type": "Point",
        "coordinates": [
          -119.7055008,
          34.439174
        ]
      },
      "id": "way/35130982"
    },
    {
      "type": "Feature",
      "properties": {
        "@id": "way/41291449",
        "access": "private",
        "highway": "service",
        "service": "emergency_access",
        "smoothness": "intermediate",
        "surface": "asphalt",
        "@geometry": "center"
      },
      "geometry": {
        "type": "Point",
        "coordinates": [
          -119.7334394,
          34.454895
        ]
      },
      "id": "way/41291449"
    },
    {
      "type": "Feature",
      "properties": {
        "@id": "way/42302855",
        "alt_name": "Beachside Inn",
        "brand": "Best Western",
        "brand:wikidata": "Q830334",
        "building": "yes",
        "name": "BEST WESTERN Beachside Inn",
        "operator": "Best Western",
        "pool": "yes",
        "tourism": "hotel",
        "@geometry": "center"
      },
      "geometry": {
        "type": "Point",
        "coordinates": [
          -119.6939306,
          34.4084365
        ]
      },
      "id": "way/42302855"
    },
    {
      "type": "Feature",
      "properties": {
        "@id": "way/43000981",
        "highway": "service",
        "service": "parking_aisle",
        "surface": "asphalt",
        "@geometry": "center"
      },
      "geometry": {
        "type": "Point",
        "coordinates": [
          -119.693751,
          34.4071614
        ]
      },
      "id": "way/43000981"
    },
    {
      "type": "Feature",
      "properties": {
        "@id": "way/43000984",
        "highway": "service",
        "maxspeed": "15 mph",
        "service": "parking_aisle",
        "@geometry": "center"
      },
      "geometry": {
        "type": "Point",
        "coordinates": [
          -119.6942306,
          34.4063238
        ]
      },
      "id": "way/43000984"
    },
    {
      "type": "Feature",
      "properties": {
        "@id": "way/43000986",
        "highway": "service",
        "service": "parking_aisle",
        "surface": "asphalt",
        "@geometry": "center"
      },
      "geometry": {
        "type": "Point",
        "coordinates": [
          -119.6932072,
          34.4074459
        ]
      },
      "id": "way/43000986"
    },
    {
      "type": "Feature",
      "properties": {
        "@id": "way/95187242",
        "electrified": "no",
        "gauge": "1435",
        "railway": "rail",
        "service": "spur",
        "@geometry": "center"
      },
      "geometry": {
        "type": "Point",
        "coordinates": [
          -119.8378652,
          34.4377497
        ]
      },
      "id": "way/95187242"
    },
    {
      "type": "Feature",
      "properties": {
        "@id": "way/99885461",
        "highway": "service",
        "service": "parking_aisle",
        "@geometry": "center"
      },
      "geometry": {
        "type": "Point",
        "coordinates": [
          -119.7141482,
          34.4377611
        ]
      },
      "id": "way/99885461"
    },
    {
      "type": "Feature",
      "properties": {
        "@id": "way/99885462",
        "highway": "service",
        "service": "parking_aisle",
        "@geometry": "center"
      },
      "geometry": {
        "type": "Point",
        "coordinates": [
          -119.7143139,
          34.4376465
        ]
      },
      "id": "way/99885462"
    },
    {
      "type": "Feature",
      "properties": {
        "@id": "way/99885954",
        "highway": "service",
        "service": "alley",
        "source": "Bing",
        "tiger:cfcc": "A73",
        "tiger:county": "Santa Barbara, CA",
        "@geometry": "center"
      },
      "geometry": {
        "type": "Point",
        "coordinates": [
          -119.7171585,
          34.4338225
        ]
      },
      "id": "way/99885954"
    },
    {
      "type": "Feature",
      "properties": {
        "@id": "way/120096318",
        "highway": "service",
        "oneway": "yes",
        "service": "parking_aisle",
        "surface": "asphalt",
        "@geometry": "center"
      },
      "geometry": {
        "type": "Point",
        "coordinates": [
          -119.6448304,
          34.4212128
        ]
      },
      "id": "way/120096318"
    },
    {
      "type": "Feature",
      "properties": {
        "@id": "way/120247854",
        "highway": "service",
        "service": "driveway",
        "@geometry": "center"
      },
      "geometry": {
        "type": "Point",
        "coordinates": [
          -119.743135,
          34.4364754
        ]
      },
      "id": "way/120247854"
    },
    {
      "type": "Feature",
      "properties": {
        "@id": "way/120247855",
        "highway": "service",
        "service": "driveway",
        "@geometry": "center"
      },
      "geometry": {
        "type": "Point",
        "coordinates": [
          -119.7428009,
          34.4360657
        ]
      },
      "id": "way/120247855"
    },
    {
      "type": "Feature",
      "properties": {
        "@id": "way/120766919",
        "highway": "service",
        "service": "parking_aisle",
        "@geometry": "center"
      },
      "geometry": {
        "type": "Point",
        "coordinates": [
          -119.8336387,
          34.4262667
        ]
      },
      "id": "way/120766919"
    },
    {
      "type": "Feature",
      "properties": {
        "@id": "way/120766920",
        "highway": "service",
        "service": "parking_aisle",
        "@geometry": "center"
      },
      "geometry": {
        "type": "Point",
        "coordinates": [
          -119.8336322,
          34.4260988
        ]
      },
      "id": "way/120766920"
    },
    {
      "type": "Feature",
      "properties": {
        "@id": "way/120766921",
        "highway": "service",
        "service": "parking_aisle",
        "@geometry": "center"
      },
      "geometry": {
        "type": "Point",
        "coordinates": [
          -119.8326855,
          34.4262492
        ]
      },
      "id": "way/120766921"
    },
    {
      "type": "Feature",
      "properties": {
        "@id": "way/120766922",
        "highway": "service",
        "service": "parking_aisle",
        "@geometry": "center"
      },
      "geometry": {
        "type": "Point",
        "coordinates": [
          -119.8336309,
          34.4260931
        ]
      },
      "id": "way/120766922"
    },
    {
      "type": "Feature",
      "properties": {
        "@id": "way/120766923",
        "highway": "service",
        "service": "parking_aisle",
        "@geometry": "center"
      },
      "geometry": {
        "type": "Point",
        "coordinates": [
          -119.8325144,
          34.4262807
        ]
      },
      "id": "way/120766923"
    },
    {
      "type": "Feature",
      "properties": {
        "@id": "way/120766924",
        "highway": "service",
        "service": "parking_aisle",
        "@geometry": "center"
      },
      "geometry": {
        "type": "Point",
        "coordinates": [
          -119.8315564,
          34.4265625
        ]
      },
      "id": "way/120766924"
    },
    {
      "type": "Feature",
      "properties": {
        "@id": "way/120766925",
        "highway": "service",
        "service": "driveway",
        "@geometry": "center"
      },
      "geometry": {
        "type": "Point",
        "coordinates": [
          -119.8323183,
          34.4263588
        ]
      },
      "id": "way/120766925"
    },
    {
      "type": "Feature",
      "properties": {
        "@id": "way/120766927",
        "highway": "service",
        "service": "parking_aisle",
        "@geometry": "center"
      },
      "geometry": {
        "type": "Point",
        "coordinates": [
          -119.8336268,
          34.4259367
        ]
      },
      "id": "way/120766927"
    },
    {
      "type": "Feature",
      "properties": {
        "@id": "way/120766951",
        "highway": "service",
        "service": "parking_aisle",
        "@geometry": "center"
      },
      "geometry": {
        "type": "Point",
        "coordinates": [
          -119.8347519,
          34.4261702
        ]
      },
      "id": "way/120766951"
    },
    {
      "type": "Feature",
      "properties": {
        "@id": "way/120766952",
        "highway": "service",
        "service": "parking_aisle",
        "@geometry": "center"
      },
      "geometry": {
        "type": "Point",
        "coordinates": [
          -119.8347495,
          34.4260811
        ]
      },
      "id": "way/120766952"
    },
    {
      "type": "Feature",
      "properties": {
        "@id": "way/120770104",
        "access": "employees",
        "highway": "service",
        "oneway": "yes",
        "service": "parking_aisle",
        "@geometry": "center"
      },
      "geometry": {
        "type": "Point",
        "coordinates": [
          -119.8355246,
          34.4216894
        ]
      },
      "id": "way/120770104"
    },
    {
      "type": "Feature",
      "properties": {
        "@id": "way/120904484",
        "highway": "service",
        "service": "driveway",
        "@geometry": "center"
      },
      "geometry": {
        "type": "Point",
        "coordinates": [
          -119.8456877,
          34.4329842
        ]
      },
      "id": "way/120904484"
    },
    {
      "type": "Feature",
      "properties": {
        "@id": "way/120905468",
        "highway": "service",
        "service": "parking_aisle",
        "@geometry": "center"
      },
      "geometry": {
        "type": "Point",
        "coordinates": [
          -119.7039521,
          34.3979323
        ]
      },
      "id": "way/120905468"
    },
    {
      "type": "Feature",
      "properties": {
        "@id": "way/121502650",
        "highway": "service",
        "service": "driveway",
        "@geometry": "center"
      },
      "geometry": {
        "type": "Point",
        "coordinates": [
          -119.7632855,
          34.4436919
        ]
      },
      "id": "way/121502650"
    },
    {
      "type": "Feature",
      "properties": {
        "@id": "way/121502651",
        "highway": "service",
        "service": "driveway",
        "@geometry": "center"
      },
      "geometry": {
        "type": "Point",
        "coordinates": [
          -119.7622048,
          34.4434572
        ]
      },
      "id": "way/121502651"
    },
    {
      "type": "Feature",
      "properties": {
        "@id": "way/121502655",
        "access": "private",
        "highway": "service",
        "service": "driveway",
        "@geometry": "center"
      },
      "geometry": {
        "type": "Point",
        "coordinates": [
          -119.7633398,
          34.4425292
        ]
      },
      "id": "way/121502655"
    },
    {
      "type": "Feature",
      "properties": {
        "@id": "way/121502661",
        "highway": "service",
        "service": "driveway",
        "@geometry": "center"
      },
      "geometry": {
        "type": "Point",
        "coordinates": [
          -119.763504,
          34.4435874
        ]
      },
      "id": "way/121502661"
    },
    {
      "type": "Feature",
      "properties": {
        "@id": "way/121502666",
        "access": "private",
        "highway": "service",
        "service": "driveway",
        "@geometry": "center"
      },
      "geometry": {
        "type": "Point",
        "coordinates": [
          -119.7633852,
          34.4432069
        ]
      },
      "id": "way/121502666"
    },
    {
      "type": "Feature",
      "properties": {
        "@id": "way/121644097",
        "access": "no",
        "highway": "service",
        "lanes": "1",
        "service": "alley",
        "surface": "asphalt",
        "@geometry": "center"
      },
      "geometry": {
        "type": "Point",
        "coordinates": [
          -119.8332998,
          34.4284021
        ]
      },
      "id": "way/121644097"
    },
    {
      "type": "Feature",
      "properties": {
        "@id": "way/121644098",
        "access": "no",
        "highway": "service",
        "service": "driveway",
        "@geometry": "center"
      },
      "geometry": {
        "type": "Point",
        "coordinates": [
          -119.8323372,
          34.4315246
        ]
      },
      "id": "way/121644098"
    },
    {
      "type": "Feature",
      "properties": {
        "@id": "way/121644099",
        "highway": "service",
        "service": "parking_aisle",
        "@geometry": "center"
      },
      "geometry": {
        "type": "Point",
        "coordinates": [
          -119.8315853,
          34.4338425
        ]
      },
      "id": "way/121644099"
    },
    {
      "type": "Feature",
      "properties": {
        "@id": "way/121644100",
        "highway": "service",
        "service": "parking_aisle",
        "@geometry": "center"
      },
      "geometry": {
        "type": "Point",
        "coordinates": [
          -119.8316777,
          34.4338413
        ]
      },
      "id": "way/121644100"
    },
    {
      "type": "Feature",
      "properties": {
        "@id": "way/121644102",
        "highway": "service",
        "service": "parking_aisle",
        "@geometry": "center"
      },
      "geometry": {
        "type": "Point",
        "coordinates": [
          -119.8314485,
          34.433842
        ]
      },
      "id": "way/121644102"
    },
    {
      "type": "Feature",
      "properties": {
        "@id": "way/121644104",
        "access": "no",
        "highway": "service",
        "service": "airport",
        "surface": "asphalt",
        "@geometry": "center"
      },
      "geometry": {
        "type": "Point",
        "coordinates": [
          -119.8325655,
          34.431182
        ]
      },
      "id": "way/121644104"
    },
    {
      "type": "Feature",
      "properties": {
        "@id": "way/121644108",
        "highway": "service",
        "service": "parking_aisle",
        "source": "Bing",
        "@geometry": "center"
      },
      "geometry": {
        "type": "Point",
        "coordinates": [
          -119.8315057,
          34.4321282
        ]
      },
      "id": "way/121644108"
    },
    {
      "type": "Feature",
      "properties": {
        "@id": "way/121644109",
        "highway": "service",
        "service": "parking_aisle",
        "source": "Bing",
        "@geometry": "center"
      },
      "geometry": {
        "type": "Point",
        "coordinates": [
          -119.8315833,
          34.4321263
        ]
      },
      "id": "way/121644109"
    },
    {
      "type": "Feature",
      "properties": {
        "@id": "way/121644110",
        "highway": "service",
        "service": "parking_aisle",
        "source": "Bing",
        "@geometry": "center"
      },
      "geometry": {
        "type": "Point",
        "coordinates": [
          -119.8313749,
          34.4321311
        ]
      },
      "id": "way/121644110"
    },
    {
      "type": "Feature",
      "properties": {
        "@id": "way/121644112",
        "access": "no",
        "highway": "service",
        "service": "airport",
        "surface": "asphalt",
        "@geometry": "center"
      },
      "geometry": {
        "type": "Point",
        "coordinates": [
          -119.836704,
          34.4324098
        ]
      },
      "id": "way/121644112"
    },
    {
      "type": "Feature",
      "properties": {
        "@id": "way/121644236",
        "addr:city": "Santa Barbara",
        "addr:housenumber": "515",
        "addr:postcode": "93117",
        "addr:state": "CA",
        "addr:street": "Robert Marxmiller Place",
        "building": "yes",
        "name": "Santa Barbara Aviation",
        "operator": "Coastal Realty",
        "phone": "+1-805-967-9000",
        "shop": "travel_agency",
        "website": "https://santabarbaraaviation.com/",
        "@geometry": "center"
      },
      "geometry": {
        "type": "Point",
        "coordinates": [
          -119.8376571,
          34.4323451
        ]
      },
      "id": "way/121644236"
    },
    {
      "type": "Feature",
      "properties": {
        "@id": "way/121644357",
        "addr:city": "Santa Barbara",
        "addr:housenumber": "1503",
        "addr:postcode": "93117",
        "addr:state": "CA",
        "addr:street": "Cook Place",
        "building": "industrial",
        "check_date": "2025-11-03",
        "name": "Atlantic Aviation",
        "office": "company",
        "opening_hours": "06:00-22:00",
        "phone": "+1 805-964-6733; +1 855-454-0051",
        "website": "https://www.atlanticaviation.com/Locations/SBA",
        "@geometry": "center"
      },
      "geometry": {
        "type": "Point",
        "coordinates": [
          -119.8442553,
          34.429904
        ]
      },
      "id": "way/121644357"
    },
    {
      "type": "Feature",
      "properties": {
        "@id": "way/121644358",
        "highway": "service",
        "service": "parking_aisle",
        "@geometry": "center"
      },
      "geometry": {
        "type": "Point",
        "coordinates": [
          -119.8440225,
          34.4301282
        ]
      },
      "id": "way/121644358"
    },
    {
      "type": "Feature",
      "properties": {
        "@id": "way/121644366",
        "highway": "service",
        "service": "parking_aisle",
        "@geometry": "center"
      },
      "geometry": {
        "type": "Point",
        "coordinates": [
          -119.8447257,
          34.4299361
        ]
      },
      "id": "way/121644366"
    },
    {
      "type": "Feature",
      "properties": {
        "@id": "way/121644376",
        "highway": "service",
        "service": "parking_aisle",
        "@geometry": "center"
      },
      "geometry": {
        "type": "Point",
        "coordinates": [
          -119.8449594,
          34.4299104
        ]
      },
      "id": "way/121644376"
    },
    {
      "type": "Feature",
      "properties": {
        "@id": "way/121644379",
        "highway": "service",
        "service": "parking_aisle",
        "@geometry": "center"
      },
      "geometry": {
        "type": "Point",
        "coordinates": [
          -119.843937,
          34.4303111
        ]
      },
      "id": "way/121644379"
    },
    {
      "type": "Feature",
      "properties": {
        "@id": "way/121644397",
        "highway": "service",
        "oneway": "yes",
        "service": "parking_aisle",
        "@geometry": "center"
      },
      "geometry": {
        "type": "Point",
        "coordinates": [
          -119.8355332,
          34.4338156
        ]
      },
      "id": "way/121644397"
    },
    {
      "type": "Feature",
      "properties": {
        "@id": "way/122080776",
        "highway": "service",
        "service": "driveway",
        "@geometry": "center"
      },
      "geometry": {
        "type": "Point",
        "coordinates": [
          -119.7445628,
          34.4360869
        ]
      },
      "id": "way/122080776"
    },
    {
      "type": "Feature",
      "properties": {
        "@id": "way/122080779",
        "highway": "service",
        "service": "driveway",
        "@geometry": "center"
      },
      "geometry": {
        "type": "Point",
        "coordinates": [
          -119.7434244,
          34.4359812
        ]
      },
      "id": "way/122080779"
    },
    {
      "type": "Feature",
      "properties": {
        "@id": "way/122080782",
        "highway": "service",
        "service": "driveway",
        "@geometry": "center"
      },
      "geometry": {
        "type": "Point",
        "coordinates": [
          -119.7437455,
          34.4363458
        ]
      },
      "id": "way/122080782"
    },
    {
      "type": "Feature",
      "properties": {
        "@id": "way/122080786",
        "highway": "service",
        "service": "driveway",
        "@geometry": "center"
      },
      "geometry": {
        "type": "Point",
        "coordinates": [
          -119.7441075,
          34.4369398
        ]
      },
      "id": "way/122080786"
    },
    {
      "type": "Feature",
      "properties": {
        "@id": "way/122080789",
        "highway": "service",
        "service": "driveway",
        "@geometry": "center"
      },
      "geometry": {
        "type": "Point",
        "coordinates": [
          -119.743425,
          34.4369582
        ]
      },
      "id": "way/122080789"
    },
    {
      "type": "Feature",
      "properties": {
        "@id": "way/122080791",
        "highway": "service",
        "service": "driveway",
        "@geometry": "center"
      },
      "geometry": {
        "type": "Point",
        "coordinates": [
          -119.7440817,
          34.4359945
        ]
      },
      "id": "way/122080791"
    },
    {
      "type": "Feature",
      "properties": {
        "@id": "way/122081251",
        "highway": "service",
        "service": "driveway",
        "@geometry": "center"
      },
      "geometry": {
        "type": "Point",
        "coordinates": [
          -119.7427603,
          34.4367882
        ]
      },
      "id": "way/122081251"
    },
    {
      "type": "Feature",
      "properties": {
        "@id": "way/122082128",
        "highway": "service",
        "service": "driveway",
        "@geometry": "center"
      },
      "geometry": {
        "type": "Point",
        "coordinates": [
          -119.7458709,
          34.4359668
        ]
      },
      "id": "way/122082128"
    },
    {
      "type": "Feature",
      "properties": {
        "@id": "way/122082132",
        "addr:city": "Santa Barbara",
        "addr:housenumber": "350",
        "addr:postcode": "93105",
        "addr:state": "CA",
        "addr:street": "Hitchcock Way",
        "branch": "Santa Barbara",
        "brand": "Lexus",
        "brand:wikidata": "Q35919",
        "building": "yes",
        "check_date": "2025-11-20",
        "contact:yelp": "https://www.yelp.com/biz/lexus-of-santa-barbara-santa-barbara",
        "name": "Lexus",
        "phone": "+1 805-979-5078",
        "second_hand": "yes",
        "service:vehicle:car_parts": "yes",
        "service:vehicle:car_repair": "yes",
        "service:vehicle:new_car_sales": "yes",
        "service:vehicle:oil_change": "yes",
        "service:vehicle:used_car_sales": "yes",
        "shop": "car",
        "website": "https://www.lexusofsantabarbara.com/",
        "@geometry": "center"
      },
      "geometry": {
        "type": "Point",
        "coordinates": [
          -119.74519,
          34.4346736
        ]
      },
      "id": "way/122082132"
    },
    {
      "type": "Feature",
      "properties": {
        "@id": "way/122082463",
        "highway": "service",
        "service": "parking_aisle",
        "surface": "asphalt",
        "@geometry": "center"
      },
      "geometry": {
        "type": "Point",
        "coordinates": [
          -119.7447365,
          34.4380771
        ]
      },
      "id": "way/122082463"
    },
    {
      "type": "Feature",
      "properties": {
        "@id": "way/122082464",
        "highway": "service",
        "service": "driveway",
        "@geometry": "center"
      },
      "geometry": {
        "type": "Point",
        "coordinates": [
          -119.7449301,
          34.4386116
        ]
      },
      "id": "way/122082464"
    },
    {
      "type": "Feature",
      "properties": {
        "@id": "way/122082465",
        "highway": "service",
        "oneway": "yes",
        "service": "parking_aisle",
        "surface": "asphalt",
        "@geometry": "center"
      },
      "geometry": {
        "type": "Point",
        "coordinates": [
          -119.7452326,
          34.4385447
        ]
      },
      "id": "way/122082465"
    },
    {
      "type": "Feature",
      "properties": {
        "@id": "way/122082466",
        "highway": "service",
        "service": "driveway",
        "@geometry": "center"
      },
      "geometry": {
        "type": "Point",
        "coordinates": [
          -119.7451071,
          34.4383377
        ]
      },
      "id": "way/122082466"
    },
    {
      "type": "Feature",
      "properties": {
        "@id": "way/122082467",
        "highway": "service",
        "oneway": "yes",
        "service": "parking_aisle",
        "surface": "asphalt",
        "@geometry": "center"
      },
      "geometry": {
        "type": "Point",
        "coordinates": [
          -119.7447407,
          34.4386004
        ]
      },
      "id": "way/122082467"
    },
    {
      "type": "Feature",
      "properties": {
        "@id": "way/122082468",
        "highway": "service",
        "oneway": "yes",
        "service": "parking_aisle",
        "surface": "asphalt",
        "@geometry": "center"
      },
      "geometry": {
        "type": "Point",
        "coordinates": [
          -119.7450605,
          34.4385682
        ]
      },
      "id": "way/122082468"
    },
    {
      "type": "Feature",
      "properties": {
        "@id": "way/122082469",
        "highway": "service",
        "oneway": "yes",
        "service": "parking_aisle",
        "surface": "asphalt",
        "@geometry": "center"
      },
      "geometry": {
        "type": "Point",
        "coordinates": [
          -119.7449032,
          34.4385863
        ]
      },
      "id": "way/122082469"
    },
    {
      "type": "Feature",
      "properties": {
        "@id": "way/122082718",
        "addr:city": "Santa Barbara",
        "addr:housenumber": "3747",
        "addr:postcode": "93105",
        "addr:state": "CA",
        "addr:street": "State Street",
        "amenity": "fast_food",
        "brand": "Jack in the Box",
        "brand:wikidata": "Q1538507",
        "building": "retail",
        "check_date": "2025-11-20",
        "contact:yelp": "https://www.yelp.com/biz/jack-in-the-box-santa-barbara-2",
        "cuisine": "burger",
        "drive_through": "yes",
        "name": "Jack in the Box",
        "opening_hours": "Mo-Tu 06:00-22:00; We 06:00-24:00; Th,Sa-Su 04:00-04:00; Fr 06:00-04:00",
        "phone": "+1 805-682-8674",
        "takeaway": "yes",
        "website": "https://locations.jackinthebox.com/us/ca/santa-barbara/3747-state-st",
        "@geometry": "center"
      },
      "geometry": {
        "type": "Point",
        "coordinates": [
          -119.7441611,
          34.4401877
        ]
      },
      "id": "way/122082718"
    },
    {
      "type": "Feature",
      "properties": {
        "@id": "way/122083377",
        "highway": "service",
        "service": "driveway",
        "@geometry": "center"
      },
      "geometry": {
        "type": "Point",
        "coordinates": [
          -119.7443103,
          34.4402053
        ]
      },
      "id": "way/122083377"
    },
    {
      "type": "Feature",
      "properties": {
        "@id": "way/122083378",
        "highway": "service",
        "service": "driveway",
        "@geometry": "center"
      },
      "geometry": {
        "type": "Point",
        "coordinates": [
          -119.7435819,
          34.4401753
        ]
      },
      "id": "way/122083378"
    },
    {
      "type": "Feature",
      "properties": {
        "@id": "way/122083381",
        "highway": "service",
        "oneway": "yes",
        "service": "drive-through",
        "surface": "asphalt",
        "@geometry": "center"
      },
      "geometry": {
        "type": "Point",
        "coordinates": [
          -119.7441972,
          34.4401945
        ]
      },
      "id": "way/122083381"
    },
    {
      "type": "Feature",
      "properties": {
        "@id": "way/122083382",
        "building": "yes",
        "name": "Rose Garden Inn",
        "tourism": "motel",
        "@geometry": "center"
      },
      "geometry": {
        "type": "Point",
        "coordinates": [
          -119.7417886,
          34.4400964
        ]
      },
      "id": "way/122083382"
    },
    {
      "type": "Feature",
      "properties": {
        "@id": "way/122083386",
        "highway": "service",
        "service": "driveway",
        "@geometry": "center"
      },
      "geometry": {
        "type": "Point",
        "coordinates": [
          -119.7440198,
          34.4401692
        ]
      },
      "id": "way/122083386"
    },
    {
      "type": "Feature",
      "properties": {
        "@id": "way/122083388",
        "highway": "service",
        "oneway": "yes",
        "service": "driveway",
        "@geometry": "center"
      },
      "geometry": {
        "type": "Point",
        "coordinates": [
          -119.741042,
          34.4403299
        ]
      },
      "id": "way/122083388"
    },
    {
      "type": "Feature",
      "properties": {
        "@id": "way/122087285",
        "highway": "service",
        "oneway": "yes",
        "service": "driveway",
        "@geometry": "center"
      },
      "geometry": {
        "type": "Point",
        "coordinates": [
          -119.7378401,
          34.4395958
        ]
      },
      "id": "way/122087285"
    },
    {
      "type": "Feature",
      "properties": {
        "@id": "way/122087288",
        "highway": "service",
        "service": "driveway",
        "@geometry": "center"
      },
      "geometry": {
        "type": "Point",
        "coordinates": [
          -119.7393596,
          34.4403227
        ]
      },
      "id": "way/122087288"
    },
    {
      "type": "Feature",
      "properties": {
        "@id": "way/122087289",
        "highway": "service",
        "service": "driveway",
        "@geometry": "center"
      },
      "geometry": {
        "type": "Point",
        "coordinates": [
          -119.7378152,
          34.4400788
        ]
      },
      "id": "way/122087289"
    },
    {
      "type": "Feature",
      "properties": {
        "@id": "way/122087292",
        "highway": "service",
        "oneway": "yes",
        "service": "driveway",
        "@geometry": "center"
      },
      "geometry": {
        "type": "Point",
        "coordinates": [
          -119.7389874,
          34.4397792
        ]
      },
      "id": "way/122087292"
    },
    {
      "type": "Feature",
      "properties": {
        "@id": "way/122087294",
        "highway": "service",
        "service": "driveway",
        "@geometry": "center"
      },
      "geometry": {
        "type": "Point",
        "coordinates": [
          -119.7387903,
          34.4403177
        ]
      },
      "id": "way/122087294"
    },
    {
      "type": "Feature",
      "properties": {
        "@id": "way/122087295",
        "highway": "service",
        "service": "driveway",
        "@geometry": "center"
      },
      "geometry": {
        "type": "Point",
        "coordinates": [
          -119.7357499,
          34.4401235
        ]
      },
      "id": "way/122087295"
    },
    {
      "type": "Feature",
      "properties": {
        "@id": "way/122087297",
        "building": "yes",
        "name": "Sandpiper Lodge",
        "tourism": "motel",
        "@geometry": "center"
      },
      "geometry": {
        "type": "Point",
        "coordinates": [
          -119.7394129,
          34.4397401
        ]
      },
      "id": "way/122087297"
    },
    {
      "type": "Feature",
      "properties": {
        "@id": "way/122087331",
        "highway": "service",
        "service": "driveway",
        "@geometry": "center"
      },
      "geometry": {
        "type": "Point",
        "coordinates": [
          -119.7368289,
          34.4403075
        ]
      },
      "id": "way/122087331"
    },
    {
      "type": "Feature",
      "properties": {
        "@id": "way/122087332",
        "highway": "service",
        "service": "driveway",
        "@geometry": "center"
      },
      "geometry": {
        "type": "Point",
        "coordinates": [
          -119.7365539,
          34.4403119
        ]
      },
      "id": "way/122087332"
    },
    {
      "type": "Feature",
      "properties": {
        "@id": "way/122087333",
        "highway": "service",
        "service": "driveway",
        "@geometry": "center"
      },
      "geometry": {
        "type": "Point",
        "coordinates": [
          -119.7354609,
          34.4395283
        ]
      },
      "id": "way/122087333"
    },
    {
      "type": "Feature",
      "properties": {
        "@id": "way/122087412",
        "highway": "service",
        "service": "parking_aisle",
        "surface": "asphalt",
        "@geometry": "center"
      },
      "geometry": {
        "type": "Point",
        "coordinates": [
          -119.7353506,
          34.4402312
        ]
      },
      "id": "way/122087412"
    },
    {
      "type": "Feature",
      "properties": {
        "@id": "way/122087413",
        "highway": "service",
        "service": "parking_aisle",
        "surface": "asphalt",
        "@geometry": "center"
      },
      "geometry": {
        "type": "Point",
        "coordinates": [
          -119.7357437,
          34.4396284
        ]
      },
      "id": "way/122087413"
    },
    {
      "type": "Feature",
      "properties": {
        "@id": "way/122087414",
        "highway": "service",
        "service": "parking_aisle",
        "surface": "asphalt",
        "@geometry": "center"
      },
      "geometry": {
        "type": "Point",
        "coordinates": [
          -119.7351403,
          34.4400379
        ]
      },
      "id": "way/122087414"
    },
    {
      "type": "Feature",
      "properties": {
        "@id": "way/122087415",
        "highway": "service",
        "service": "parking_aisle",
        "surface": "asphalt",
        "@geometry": "center"
      },
      "geometry": {
        "type": "Point",
        "coordinates": [
          -119.735347,
          34.4396274
        ]
      },
      "id": "way/122087415"
    },
    {
      "type": "Feature",
      "properties": {
        "@id": "way/122087416",
        "highway": "service",
        "service": "parking_aisle",
        "surface": "asphalt",
        "@geometry": "center"
      },
      "geometry": {
        "type": "Point",
        "coordinates": [
          -119.7349513,
          34.4396255
        ]
      },
      "id": "way/122087416"
    },
    {
      "type": "Feature",
      "properties": {
        "@id": "way/122087417",
        "highway": "service",
        "service": "driveway",
        "@geometry": "center"
      },
      "geometry": {
        "type": "Point",
        "coordinates": [
          -119.7349507,
          34.4401125
        ]
      },
      "id": "way/122087417"
    },
    {
      "type": "Feature",
      "properties": {
        "@id": "way/122087418",
        "highway": "service",
        "service": "parking_aisle",
        "surface": "asphalt",
        "@geometry": "center"
      },
      "geometry": {
        "type": "Point",
        "coordinates": [
          -119.7351451,
          34.4396264
        ]
      },
      "id": "way/122087418"
    },
    {
      "type": "Feature",
      "properties": {
        "@id": "way/122087419",
        "highway": "service",
        "service": "parking_aisle",
        "surface": "asphalt",
        "@geometry": "center"
      },
      "geometry": {
        "type": "Point",
        "coordinates": [
          -119.7355515,
          34.4400304
        ]
      },
      "id": "way/122087419"
    },
    {
      "type": "Feature",
      "properties": {
        "@id": "way/122087420",
        "highway": "service",
        "service": "parking_aisle",
        "surface": "asphalt",
        "@geometry": "center"
      },
      "geometry": {
        "type": "Point",
        "coordinates": [
          -119.7353443,
          34.4400415
        ]
      },
      "id": "way/122087420"
    },
    {
      "type": "Feature",
      "properties": {
        "@id": "way/122087421",
        "highway": "service",
        "service": "parking_aisle",
        "surface": "asphalt",
        "@geometry": "center"
      },
      "geometry": {
        "type": "Point",
        "coordinates": [
          -119.7355481,
          34.4396283
        ]
      },
      "id": "way/122087421"
    },
    {
      "type": "Feature",
      "properties": {
        "@id": "way/122087443",
        "highway": "service",
        "service": "parking_aisle",
        "@geometry": "center"
      },
      "geometry": {
        "type": "Point",
        "coordinates": [
          -119.7345919,
          34.4396916
        ]
      },
      "id": "way/122087443"
    },
    {
      "type": "Feature",
      "properties": {
        "@id": "way/122087444",
        "highway": "service",
        "oneway": "yes",
        "service": "parking_aisle",
        "@geometry": "center"
      },
      "geometry": {
        "type": "Point",
        "coordinates": [
          -119.7346153,
          34.4390541
        ]
      },
      "id": "way/122087444"
    },
    {
      "type": "Feature",
      "properties": {
        "@id": "way/122087445",
        "highway": "service",
        "service": "parking_aisle",
        "surface": "asphalt",
        "@geometry": "center"
      },
      "geometry": {
        "type": "Point",
        "coordinates": [
          -119.7347092,
          34.4400265
        ]
      },
      "id": "way/122087445"
    },
    {
      "type": "Feature",
      "properties": {
        "@id": "way/122087703",
        "highway": "service",
        "oneway": "yes",
        "service": "driveway",
        "@geometry": "center"
      },
      "geometry": {
        "type": "Point",
        "coordinates": [
          -119.7396063,
          34.4406598
        ]
      },
      "id": "way/122087703"
    },
    {
      "type": "Feature",
      "properties": {
        "@id": "way/122087706",
        "building": "yes",
        "name": "Sunset Motel",
        "tourism": "motel",
        "@geometry": "center"
      },
      "geometry": {
        "type": "Point",
        "coordinates": [
          -119.7383851,
          34.4407159
        ]
      },
      "id": "way/122087706"
    },
    {
      "type": "Feature",
      "properties": {
        "@id": "way/122087735",
        "highway": "service",
        "service": "driveway",
        "@geometry": "center"
      },
      "geometry": {
        "type": "Point",
        "coordinates": [
          -119.7367388,
          34.4406188
        ]
      },
      "id": "way/122087735"
    },
    {
      "type": "Feature",
      "properties": {
        "@id": "way/122087737",
        "highway": "service",
        "service": "driveway",
        "@geometry": "center"
      },
      "geometry": {
        "type": "Point",
        "coordinates": [
          -119.7360432,
          34.4407317
        ]
      },
      "id": "way/122087737"
    },
    {
      "type": "Feature",
      "properties": {
        "@id": "way/122087738",
        "highway": "service",
        "oneway": "yes",
        "service": "driveway",
        "@geometry": "center"
      },
      "geometry": {
        "type": "Point",
        "coordinates": [
          -119.7361627,
          34.4404785
        ]
      },
      "id": "way/122087738"
    },
    {
      "type": "Feature",
      "properties": {
        "@id": "way/122087867",
        "highway": "service",
        "oneway": "yes",
        "service": "driveway",
        "@geometry": "center"
      },
      "geometry": {
        "type": "Point",
        "coordinates": [
          -119.7428984,
          34.4412105
        ]
      },
      "id": "way/122087867"
    },
    {
      "type": "Feature",
      "properties": {
        "@id": "way/122087868",
        "highway": "service",
        "service": "driveway",
        "@geometry": "center"
      },
      "geometry": {
        "type": "Point",
        "coordinates": [
          -119.7428641,
          34.4406887
        ]
      },
      "id": "way/122087868"
    },
    {
      "type": "Feature",
      "properties": {
        "@id": "way/125987343",
        "highway": "service",
        "name": "Elise Place",
        "service": "driveway",
        "tiger:cfcc": "A41",
        "tiger:county": "Santa Barbara, CA",
        "tiger:name_base": "Elise",
        "tiger:name_type": "Pl",
        "tiger:reviewed": "no",
        "@geometry": "center"
      },
      "geometry": {
        "type": "Point",
        "coordinates": [
          -119.7245865,
          34.3997088
        ]
      },
      "id": "way/125987343"
    },
    {
      "type": "Feature",
      "properties": {
        "@id": "way/132686359",
        "addr:city": "Montecito",
        "addr:housenumber": "1040",
        "addr:postcode": "93108",
        "addr:street": "Coast Village Road",
        "branch": "2101",
        "brand": "Pavilions",
        "brand:wikidata": "Q7155886",
        "building": "yes",
        "building:levels": "1",
        "check_date": "2025-10-23",
        "contact:yelp": "https://www.yelp.com/biz/pavilions-montecito",
        "name": "Pavilions",
        "opening_hours": "06:00-22:00",
        "operator": "Albertsons Companies Inc",
        "phone": "+1-805-969-2112",
        "shop": "supermarket",
        "website": "https://local.pavilions.com/ca/montecito/1040-coast-village-rd.html",
        "@geometry": "center"
      },
      "geometry": {
        "type": "Point",
        "coordinates": [
          -119.6510823,
          34.42268
        ]
      },
      "id": "way/132686359"
    },
    {
      "type": "Feature",
      "properties": {
        "@id": "way/133125308",
        "addr:city": "Santa Barbara",
        "addr:housenumber": "3855",
        "addr:postcode": "93105",
        "addr:state": "CA",
        "addr:street": "State Street",
        "branch": "La Cumbre",
        "building": "yes",
        "check_date": "2025-11-17",
        "contact:yelp": "https://www.yelp.com/biz/bristol-farms-santa-barbara-2",
        "name": "Bristol Farms",
        "opening_hours": "07:00-22:00",
        "phone": "+1 805-738-7700",
        "shop": "supermarket",
        "website": "https://www.bristolfarms.com/stores/la-cumbre",
        "@geometry": "center"
      },
      "geometry": {
        "type": "Point",
        "coordinates": [
          -119.7494871,
          34.438452
        ]
      },
      "id": "way/133125308"
    },
    {
      "type": "Feature",
      "properties": {
        "@id": "way/133125310",
        "highway": "service",
        "name": "Vons 2109 Truck Service Ramp",
        "service": "driveway",
        "@geometry": "center"
      },
      "geometry": {
        "type": "Point",
        "coordinates": [
          -119.7492023,
          34.4387191
        ]
      },
      "id": "way/133125310"
    },
    {
      "type": "Feature",
      "properties": {
        "@id": "way/133125311",
        "highway": "service",
        "oneway": "yes",
        "service": "parking_aisle",
        "surface": "asphalt",
        "@geometry": "center"
      },
      "geometry": {
        "type": "Point",
        "coordinates": [
          -119.7493042,
          34.4377396
        ]
      },
      "id": "way/133125311"
    },
    {
      "type": "Feature",
      "properties": {
        "@id": "way/133125315",
        "bridge": "yes",
        "highway": "service",
        "layer": "1",
        "oneway": "no",
        "service": "driveway",
        "sidewalk": "right",
        "@geometry": "center"
      },
      "geometry": {
        "type": "Point",
        "coordinates": [
          -119.7482795,
          34.4400077
        ]
      },
      "id": "way/133125315"
    },
    {
      "type": "Feature",
      "properties": {
        "@id": "way/133125317",
        "highway": "service",
        "service": "parking_aisle",
        "surface": "asphalt",
        "@geometry": "center"
      },
      "geometry": {
        "type": "Point",
        "coordinates": [
          -119.7499146,
          34.4386666
        ]
      },
      "id": "way/133125317"
    },
    {
      "type": "Feature",
      "properties": {
        "@id": "way/133125318",
        "highway": "service",
        "service": "parking_aisle",
        "surface": "asphalt",
        "@geometry": "center"
      },
      "geometry": {
        "type": "Point",
        "coordinates": [
          -119.7499983,
          34.4384865
        ]
      },
      "id": "way/133125318"
    },
    {
      "type": "Feature",
      "properties": {
        "@id": "way/140355911",
        "highway": "service",
        "service": "parking_aisle",
        "@geometry": "center"
      },
      "geometry": {
        "type": "Point",
        "coordinates": [
          -119.830993,
          34.4351233
        ]
      },
      "id": "way/140355911"
    },
    {
      "type": "Feature",
      "properties": {
        "@id": "way/140355913",
        "highway": "service",
        "oneway": "yes",
        "service": "parking_aisle",
        "@geometry": "center"
      },
      "geometry": {
        "type": "Point",
        "coordinates": [
          -119.8311075,
          34.4354137
        ]
      },
      "id": "way/140355913"
    },
    {
      "type": "Feature",
      "properties": {
        "@id": "way/140355920",
        "addr:city": "Santa Barbara",
        "addr:housenumber": "6010",
        "addr:postcode": "93117",
        "addr:state": "CA",
        "addr:street": "Hollister Avenue",
        "brand": "Big Brand Tire & Service",
        "brand:wikidata": "Q120784816",
        "building": "yes",
        "building:levels": "1",
        "check_date": "2025-11-03",
        "contact:yelp": "https://www.yelp.com/biz/big-brand-tire-and-service-goleta-2",
        "name": "Big Brand Tire & Service",
        "opening_hours": "Mo-Fr 08:00-18:00; Sa 08:00-17:00; Su 09:00-16:00",
        "phone": "+1 805-967-1917",
        "shop": "tyres",
        "website": "https://www.bigbrandtire.com/locations/goleta-ca",
        "@geometry": "center"
      },
      "geometry": {
        "type": "Point",
        "coordinates": [
          -119.8311326,
          34.4362684
        ]
      },
      "id": "way/140355920"
    },
    {
      "type": "Feature",
      "properties": {
        "@id": "way/140356058",
        "highway": "service",
        "service": "parking_aisle",
        "@geometry": "center"
      },
      "geometry": {
        "type": "Point",
        "coordinates": [
          -119.8346184,
          34.4335425
        ]
      },
      "id": "way/140356058"
    },
    {
      "type": "Feature",
      "properties": {
        "@id": "way/140356061",
        "addr:city": "Santa Barbara",
        "addr:housenumber": "100",
        "addr:postcode": "93117",
        "addr:state": "CA",
        "addr:street": "Frederick Lopez Road",
        "building": "yes",
        "check_date": "2025-08-22",
        "contact:instagram": "https://www.instagram.com/senseeker_engineering",
        "contact:linkedin": "https://www.linkedin.com/company/senseeker-enginnering-inc",
        "contact:twitter": "https://www.twitter.com/senseeker",
        "contact:youtube": "https://www.youtube.com/channel/UCrMNAQUXQ0OYVvSWOc2aNUQ",
        "email": "info@senseeker.com",
        "name": "Senseeker Engineering Inc.",
        "office": "company",
        "phone": "+1-805-617-0337; +1-805-571-6800",
        "website": "https://senseeker.com/",
        "@geometry": "center"
      },
      "geometry": {
        "type": "Point",
        "coordinates": [
          -119.8354638,
          34.4361515
        ]
      },
      "id": "way/140356061"
    },
    {
      "type": "Feature",
      "properties": {
        "@id": "way/142545829",
        "electrified": "no",
        "gauge": "1435",
        "railway": "rail",
        "service": "spur",
        "@geometry": "center"
      },
      "geometry": {
        "type": "Point",
        "coordinates": [
          -119.6832469,
          34.4161554
        ]
      },
      "id": "way/142545829"
    },
    {
      "type": "Feature",
      "properties": {
        "@id": "way/142550516",
        "electrified": "no",
        "gauge": "1435",
        "railway": "rail",
        "service": "spur",
        "@geometry": "center"
      },
      "geometry": {
        "type": "Point",
        "coordinates": [
          -119.6832056,
          34.4160694
        ]
      },
      "id": "way/142550516"
    },
    {
      "type": "Feature",
      "properties": {
        "@id": "way/154818594",
        "highway": "service",
        "oneway": "yes",
        "service": "parking_aisle",
        "@geometry": "center"
      },
      "geometry": {
        "type": "Point",
        "coordinates": [
          -119.7590227,
          34.4437379
        ]
      },
      "id": "way/154818594"
    },
    {
      "type": "Feature",
      "properties": {
        "@id": "way/154818600",
        "highway": "service",
        "oneway": "yes",
        "service": "parking_aisle",
        "@geometry": "center"
      },
      "geometry": {
        "type": "Point",
        "coordinates": [
          -119.7590377,
          34.4435907
        ]
      },
      "id": "way/154818600"
    },
    {
      "type": "Feature",
      "properties": {
        "@id": "way/175192658",
        "addr:city": "Santa Barbara",
        "addr:housenumber": "1616",
        "addr:postcode": "93101",
        "addr:street": "Chapala Street",
        "name": "Lee & Associates",
        "office": "company",
        "@geometry": "center"
      },
      "geometry": {
        "type": "Point",
        "coordinates": [
          -119.7112002,
          34.4266694
        ]
      },
      "id": "way/175192658"
    },
    {
      "type": "Feature",
      "properties": {
        "@id": "way/175192670",
        "addr:city": "Santa Barbara",
        "addr:housenumber": "30",
        "addr:postcode": "93101",
        "addr:street": "West Sola Street",
        "building": "commercial",
        "building:levels": "2",
        "building:material": "brick",
        "name": "Green Hills Software",
        "office": "company",
        "roof:shape": "flat",
        "website": "https://www.ghs.com/",
        "@geometry": "center"
      },
      "geometry": {
        "type": "Point",
        "coordinates": [
          -119.708202,
          34.4245793
        ]
      },
      "id": "way/175192670"
    },
    {
      "type": "Feature",
      "properties": {
        "@id": "way/175192683",
        "addr:city": "Santa Barbara",
        "addr:housenumber": "1325",
        "addr:postcode": "93101",
        "addr:state": "CA",
        "addr:street": "State Street",
        "amenity": "restaurant",
        "building": "retail",
        "check_date": "2025-08-03",
        "contact:facebook": "https://www.facebook.com/OpalRestaurantandBar/",
        "contact:instagram": "https://www.instagram.com/opal_sb/",
        "contact:yelp": "https://www.yelp.com/biz/opal-santa-barbara-2",
        "cuisine": "american",
        "email": "info@opalrestaurantandbar.com",
        "name": "Opal Restaurant & Bar",
        "opening_hours": "Mo-Th,Su 17:00-21:00; Fr-Sa 17:00-22:00",
        "outdoor_seating": "yes",
        "phone": "+1-805-966-9676",
        "website": "https://opalrestaurantandbar.com/",
        "website:menu": "https://opalrestaurantandbar.com/menu/",
        "@geometry": "center"
      },
      "geometry": {
        "type": "Point",
        "coordinates": [
          -119.7067886,
          34.4247203
        ]
      },
      "id": "way/175192683"
    },
    {
      "type": "Feature",
      "properties": {
        "@id": "way/175192690",
        "addr:city": "Santa Barbara",
        "addr:housenumber": "1341",
        "addr:postcode": "93101",
        "addr:state": "CA",
        "addr:street": "State Street",
        "building": "retail",
        "check_date": "2025-08-03",
        "contact:yelp": "https://www.yelp.com/biz/kaleidoscope-flowers-santa-barbara",
        "email": "kalflower@aol.com",
        "name": "Kaleidoscope Flowers",
        "opening_hours": "Mo-Fr 09:00-15:00; Sa 09:00-11:30; Su off",
        "phone": "+1-805-962-0032",
        "shop": "florist",
        "website": "https://www.kaleidoscopeflower.com/",
        "@geometry": "center"
      },
      "geometry": {
        "type": "Point",
        "coordinates": [
          -119.7069872,
          34.4248667
        ]
      },
      "id": "way/175192690"
    },
    {
      "type": "Feature",
      "properties": {
        "@id": "way/175192698",
        "addr:housenumber": "1345",
        "addr:street": "State Street",
        "building": "retail",
        "check_date": "2024-10-20",
        "name": "Electric Bikes",
        "shop": "bicycle",
        "@geometry": "center"
      },
      "geometry": {
        "type": "Point",
        "coordinates": [
          -119.7070209,
          34.4249922
        ]
      },
      "id": "way/175192698"
    },
    {
      "type": "Feature",
      "properties": {
        "@id": "way/175192702",
        "addr:city": "Santa Barbara",
        "addr:housenumber": "1311",
        "addr:postcode": "93101",
        "addr:state": "CA",
        "addr:street": "State Street",
        "amenity": "restaurant",
        "building": "retail",
        "check_date": "2025-08-03",
        "contact:instagram": "https://www.instagram.com/janerestaurantsb/",
        "contact:yelp": "https://www.yelp.com/biz/jane-santa-barbara",
        "cuisine": "american",
        "name": "Jane",
        "phone": "+1-805-962-1311",
        "website": "https://www.janesb.com/home",
        "website:menu": "https://www.janesb.com/menus",
        "@geometry": "center"
      },
      "geometry": {
        "type": "Point",
        "coordinates": [
          -119.7063735,
          34.4244221
        ]
      },
      "id": "way/175192702"
    },
    {
      "type": "Feature",
      "properties": {
        "@id": "way/175192712",
        "addr:city": "Santa Barbara",
        "addr:country": "US",
        "addr:housenumber": "1601",
        "addr:postcode": "93101",
        "addr:state": "CA",
        "addr:street": "State Street",
        "branch": "Santa Barbara Downtown",
        "brand": "Courtyard",
        "brand:wikidata": "Q1053170",
        "building": "commercial",
        "fax": "+1 805-855-4025",
        "internet_access": "wlan",
        "internet_access:fee": "no",
        "name": "Courtyard Santa Barbara Downtown",
        "official_name": "Courtyard by Marriott",
        "phone": "+1 805-975-0660",
        "ref": "SBACS",
        "rooms": "122",
        "tourism": "hotel",
        "website": "https://www.marriott.com/hotels/travel/sbacs-courtyard-santa-barbara-downtown/",
        "@geometry": "center"
      },
      "geometry": {
        "type": "Point",
        "coordinates": [
          -119.7100887,
          34.4270083
        ]
      },
      "id": "way/175192712"
    },
    {
      "type": "Feature",
      "properties": {
        "@id": "way/218019113",
        "highway": "service",
        "service": "parking_aisle",
        "@geometry": "center"
      },
      "geometry": {
        "type": "Point",
        "coordinates": [
          -119.7107536,
          34.3961405
        ]
      },
      "id": "way/218019113"
    },
    {
      "type": "Feature",
      "properties": {
        "@id": "way/221143497",
        "highway": "service",
        "service": "parking_aisle",
        "@geometry": "center"
      },
      "geometry": {
        "type": "Point",
        "coordinates": [
          -119.8347504,
          34.4262384
        ]
      },
      "id": "way/221143497"
    },
    {
      "type": "Feature",
      "properties": {
        "@id": "way/231771837",
        "highway": "service",
        "oneway": "yes",
        "service": "parking_aisle",
        "@geometry": "center"
      },
      "geometry": {
        "type": "Point",
        "coordinates": [
          -119.7223465,
          34.397871
        ]
      },
      "id": "way/231771837"
    },
    {
      "type": "Feature",
      "properties": {
        "@id": "way/231772256",
        "highway": "service",
        "service": "driveway",
        "@geometry": "center"
      },
      "geometry": {
        "type": "Point",
        "coordinates": [
          -119.7520601,
          34.4396041
        ]
      },
      "id": "way/231772256"
    },
    {
      "type": "Feature",
      "properties": {
        "@id": "way/231772258",
        "highway": "service",
        "service": "parking_aisle",
        "surface": "asphalt",
        "@geometry": "center"
      },
      "geometry": {
        "type": "Point",
        "coordinates": [
          -119.751688,
          34.4391252
        ]
      },
      "id": "way/231772258"
    },
    {
      "type": "Feature",
      "properties": {
        "@id": "way/231772259",
        "highway": "service",
        "service": "driveway",
        "@geometry": "center"
      },
      "geometry": {
        "type": "Point",
        "coordinates": [
          -119.7525564,
          34.4401611
        ]
      },
      "id": "way/231772259"
    },
    {
      "type": "Feature",
      "properties": {
        "@id": "way/231772260",
        "highway": "service",
        "service": "parking_aisle",
        "surface": "asphalt",
        "@geometry": "center"
      },
      "geometry": {
        "type": "Point",
        "coordinates": [
          -119.752789,
          34.4398129
        ]
      },
      "id": "way/231772260"
    },
    {
      "type": "Feature",
      "properties": {
        "@id": "way/231772261",
        "highway": "service",
        "service": "parking_aisle",
        "surface": "asphalt",
        "@geometry": "center"
      },
      "geometry": {
        "type": "Point",
        "coordinates": [
          -119.7525536,
          34.4397478
        ]
      },
      "id": "way/231772261"
    },
    {
      "type": "Feature",
      "properties": {
        "@id": "way/231772262",
        "highway": "service",
        "service": "parking_aisle",
        "surface": "asphalt",
        "@geometry": "center"
      },
      "geometry": {
        "type": "Point",
        "coordinates": [
          -119.7523854,
          34.4396206
        ]
      },
      "id": "way/231772262"
    },
    {
      "type": "Feature",
      "properties": {
        "@id": "way/231772263",
        "highway": "service",
        "service": "parking_aisle",
        "surface": "asphalt",
        "@geometry": "center"
      },
      "geometry": {
        "type": "Point",
        "coordinates": [
          -119.7523194,
          34.439442
        ]
      },
      "id": "way/231772263"
    },
    {
      "type": "Feature",
      "properties": {
        "@id": "way/231772264",
        "highway": "service",
        "service": "parking_aisle",
        "surface": "asphalt",
        "@geometry": "center"
      },
      "geometry": {
        "type": "Point",
        "coordinates": [
          -119.7522435,
          34.4392436
        ]
      },
      "id": "way/231772264"
    },
    {
      "type": "Feature",
      "properties": {
        "@id": "way/231772265",
        "highway": "service",
        "service": "parking_aisle",
        "surface": "asphalt",
        "@geometry": "center"
      },
      "geometry": {
        "type": "Point",
        "coordinates": [
          -119.752037,
          34.4391798
        ]
      },
      "id": "way/231772265"
    },
    {
      "type": "Feature",
      "properties": {
        "@id": "way/231772266",
        "highway": "service",
        "service": "parking_aisle",
        "surface": "asphalt",
        "@geometry": "center"
      },
      "geometry": {
        "type": "Point",
        "coordinates": [
          -119.7517041,
          34.439043
        ]
      },
      "id": "way/231772266"
    },
    {
      "type": "Feature",
      "properties": {
        "@id": "way/231772267",
        "check_date:surface": "2023-04-16",
        "highway": "service",
        "service": "parking_aisle",
        "surface": "asphalt",
        "@geometry": "center"
      },
      "geometry": {
        "type": "Point",
        "coordinates": [
          -119.7514868,
          34.4390405
        ]
      },
      "id": "way/231772267"
    },
    {
      "type": "Feature",
      "properties": {
        "@id": "way/231772268",
        "highway": "service",
        "service": "parking_aisle",
        "surface": "asphalt",
        "@geometry": "center"
      },
      "geometry": {
        "type": "Point",
        "coordinates": [
          -119.7519239,
          34.4390421
        ]
      },
      "id": "way/231772268"
    },
    {
      "type": "Feature",
      "properties": {
        "@id": "way/231772269",
        "highway": "service",
        "service": "parking_aisle",
        "@geometry": "center"
      },
      "geometry": {
        "type": "Point",
        "coordinates": [
          -119.7527327,
          34.440054
        ]
      },
      "id": "way/231772269"
    },
    {
      "type": "Feature",
      "properties": {
        "@id": "way/231772270",
        "highway": "service",
        "service": "driveway",
        "@geometry": "center"
      },
      "geometry": {
        "type": "Point",
        "coordinates": [
          -119.7524557,
          34.4391697
        ]
      },
      "id": "way/231772270"
    },
    {
      "type": "Feature",
      "properties": {
        "@id": "way/231772271",
        "highway": "service",
        "service": "driveway",
        "@geometry": "center"
      },
      "geometry": {
        "type": "Point",
        "coordinates": [
          -119.753361,
          34.4398159
        ]
      },
      "id": "way/231772271"
    },
    {
      "type": "Feature",
      "properties": {
        "@id": "way/231772272",
        "highway": "service",
        "service": "parking_aisle",
        "@geometry": "center"
      },
      "geometry": {
        "type": "Point",
        "coordinates": [
          -119.7533884,
          34.4399586
        ]
      },
      "id": "way/231772272"
    },
    {
      "type": "Feature",
      "properties": {
        "@id": "way/231772273",
        "highway": "service",
        "service": "parking_aisle",
        "@geometry": "center"
      },
      "geometry": {
        "type": "Point",
        "coordinates": [
          -119.7533964,
          34.4400476
        ]
      },
      "id": "way/231772273"
    },
    {
      "type": "Feature",
      "properties": {
        "@id": "way/233583194",
        "access": "permissive",
        "highway": "service",
        "service": "driveway",
        "@geometry": "center"
      },
      "geometry": {
        "type": "Point",
        "coordinates": [
          -119.7515117,
          34.4381579
        ]
      },
      "id": "way/233583194"
    },
    {
      "type": "Feature",
      "properties": {
        "@id": "way/233583198",
        "highway": "service",
        "service": "driveway",
        "@geometry": "center"
      },
      "geometry": {
        "type": "Point",
        "coordinates": [
          -119.7514016,
          34.4402478
        ]
      },
      "id": "way/233583198"
    },
    {
      "type": "Feature",
      "properties": {
        "@id": "way/233583199",
        "highway": "service",
        "oneway": "yes",
        "service": "parking_aisle",
        "@geometry": "center"
      },
      "geometry": {
        "type": "Point",
        "coordinates": [
          -119.7518147,
          34.4398999
        ]
      },
      "id": "way/233583199"
    },
    {
      "type": "Feature",
      "properties": {
        "@id": "way/233583201",
        "highway": "service",
        "service": "driveway",
        "@geometry": "center"
      },
      "geometry": {
        "type": "Point",
        "coordinates": [
          -119.7501889,
          34.4373203
        ]
      },
      "id": "way/233583201"
    },
    {
      "type": "Feature",
      "properties": {
        "@id": "way/233583202",
        "highway": "service",
        "service": "driveway",
        "@geometry": "center"
      },
      "geometry": {
        "type": "Point",
        "coordinates": [
          -119.7503158,
          34.4375857
        ]
      },
      "id": "way/233583202"
    },
    {
      "type": "Feature",
      "properties": {
        "@id": "way/233583203",
        "highway": "service",
        "service": "driveway",
        "@geometry": "center"
      },
      "geometry": {
        "type": "Point",
        "coordinates": [
          -119.7504888,
          34.437201
        ]
      },
      "id": "way/233583203"
    },
    {
      "type": "Feature",
      "properties": {
        "@id": "way/233583204",
        "highway": "service",
        "oneway": "yes",
        "service": "parking_aisle",
        "surface": "asphalt",
        "@geometry": "center"
      },
      "geometry": {
        "type": "Point",
        "coordinates": [
          -119.750079,
          34.4371146
        ]
      },
      "id": "way/233583204"
    },
    {
      "type": "Feature",
      "properties": {
        "@id": "way/233583205",
        "highway": "service",
        "oneway": "yes",
        "service": "parking_aisle",
        "surface": "asphalt",
        "@geometry": "center"
      },
      "geometry": {
        "type": "Point",
        "coordinates": [
          -119.7502629,
          34.437027
        ]
      },
      "id": "way/233583205"
    },
    {
      "type": "Feature",
      "properties": {
        "@id": "way/233583206",
        "highway": "service",
        "oneway": "yes",
        "service": "parking_aisle",
        "surface": "asphalt",
        "@geometry": "center"
      },
      "geometry": {
        "type": "Point",
        "coordinates": [
          -119.7501941,
          34.4368054
        ]
      },
      "id": "way/233583206"
    },
    {
      "type": "Feature",
      "properties": {
        "@id": "way/233583207",
        "highway": "service",
        "service": "parking_aisle",
        "surface": "asphalt",
        "@geometry": "center"
      },
      "geometry": {
        "type": "Point",
        "coordinates": [
          -119.7503609,
          34.4368679
        ]
      },
      "id": "way/233583207"
    },
    {
      "type": "Feature",
      "properties": {
        "@id": "way/233583208",
        "highway": "service",
        "oneway": "yes",
        "service": "parking_aisle",
        "surface": "asphalt",
        "@geometry": "center"
      },
      "geometry": {
        "type": "Point",
        "coordinates": [
          -119.7501163,
          34.4365897
        ]
      },
      "id": "way/233583208"
    },
    {
      "type": "Feature",
      "properties": {
        "@id": "way/233583209",
        "highway": "service",
        "service": "driveway",
        "@geometry": "center"
      },
      "geometry": {
        "type": "Point",
        "coordinates": [
          -119.7498163,
          34.4367052
        ]
      },
      "id": "way/233583209"
    },
    {
      "type": "Feature",
      "properties": {
        "@id": "way/233583210",
        "highway": "service",
        "oneway": "yes",
        "service": "parking_aisle",
        "surface": "asphalt",
        "@geometry": "center"
      },
      "geometry": {
        "type": "Point",
        "coordinates": [
          -119.7499165,
          34.43747
        ]
      },
      "id": "way/233583210"
    },
    {
      "type": "Feature",
      "properties": {
        "@id": "way/233583211",
        "highway": "service",
        "oneway": "yes",
        "service": "parking_aisle",
        "surface": "asphalt",
        "@geometry": "center"
      },
      "geometry": {
        "type": "Point",
        "coordinates": [
          -119.7499744,
          34.4373441
        ]
      },
      "id": "way/233583211"
    },
    {
      "type": "Feature",
      "properties": {
        "@id": "way/233583212",
        "access": "permissive",
        "highway": "service",
        "service": "driveway",
        "@geometry": "center"
      },
      "geometry": {
        "type": "Point",
        "coordinates": [
          -119.75085,
          34.4378681
        ]
      },
      "id": "way/233583212"
    },
    {
      "type": "Feature",
      "properties": {
        "@id": "way/233698155",
        "highway": "service",
        "oneway": "yes",
        "service": "parking_aisle",
        "surface": "asphalt",
        "@geometry": "center"
      },
      "geometry": {
        "type": "Point",
        "coordinates": [
          -119.7500058,
          34.4379256
        ]
      },
      "id": "way/233698155"
    },
    {
      "type": "Feature",
      "properties": {
        "@id": "way/233698156",
        "highway": "service",
        "oneway": "yes",
        "service": "parking_aisle",
        "surface": "asphalt",
        "@geometry": "center"
      },
      "geometry": {
        "type": "Point",
        "coordinates": [
          -119.7498406,
          34.4378613
        ]
      },
      "id": "way/233698156"
    },
    {
      "type": "Feature",
      "properties": {
        "@id": "way/233698157",
        "highway": "service",
        "oneway": "yes",
        "service": "parking_aisle",
        "surface": "asphalt",
        "@geometry": "center"
      },
      "geometry": {
        "type": "Point",
        "coordinates": [
          -119.7496651,
          34.4377983
        ]
      },
      "id": "way/233698157"
    },
    {
      "type": "Feature",
      "properties": {
        "@id": "way/233698158",
        "highway": "service",
        "oneway": "yes",
        "service": "parking_aisle",
        "surface": "asphalt",
        "@geometry": "center"
      },
      "geometry": {
        "type": "Point",
        "coordinates": [
          -119.7494794,
          34.4377666
        ]
      },
      "id": "way/233698158"
    },
    {
      "type": "Feature",
      "properties": {
        "@id": "way/233698161",
        "highway": "service",
        "oneway": "yes",
        "service": "parking_aisle",
        "surface": "asphalt",
        "@geometry": "center"
      },
      "geometry": {
        "type": "Point",
        "coordinates": [
          -119.7490969,
          34.4377157
        ]
      },
      "id": "way/233698161"
    },
    {
      "type": "Feature",
      "properties": {
        "@id": "way/233698162",
        "highway": "service",
        "oneway": "yes",
        "service": "parking_aisle",
        "surface": "asphalt",
        "@geometry": "center"
      },
      "geometry": {
        "type": "Point",
        "coordinates": [
          -119.7489017,
          34.4376895
        ]
      },
      "id": "way/233698162"
    },
    {
      "type": "Feature",
      "properties": {
        "@id": "way/233698163",
        "highway": "service",
        "oneway": "yes",
        "service": "parking_aisle",
        "surface": "asphalt",
        "@geometry": "center"
      },
      "geometry": {
        "type": "Point",
        "coordinates": [
          -119.7488471,
          34.4382509
        ]
      },
      "id": "way/233698163"
    },
    {
      "type": "Feature",
      "properties": {
        "@id": "way/233698164",
        "highway": "service",
        "oneway": "yes",
        "service": "parking_aisle",
        "surface": "asphalt",
        "@geometry": "center"
      },
      "geometry": {
        "type": "Point",
        "coordinates": [
          -119.7488135,
          34.4384013
        ]
      },
      "id": "way/233698164"
    },
    {
      "type": "Feature",
      "properties": {
        "@id": "way/233698165",
        "highway": "service",
        "oneway": "yes",
        "service": "parking_aisle",
        "surface": "asphalt",
        "@geometry": "center"
      },
      "geometry": {
        "type": "Point",
        "coordinates": [
          -119.7487776,
          34.4385571
        ]
      },
      "id": "way/233698165"
    },
    {
      "type": "Feature",
      "properties": {
        "@id": "way/233698166",
        "highway": "service",
        "oneway": "yes",
        "service": "parking_aisle",
        "surface": "asphalt",
        "@geometry": "center"
      },
      "geometry": {
        "type": "Point",
        "coordinates": [
          -119.7487462,
          34.4387074
        ]
      },
      "id": "way/233698166"
    },
    {
      "type": "Feature",
      "properties": {
        "@id": "way/233698167",
        "highway": "service",
        "oneway": "yes",
        "service": "parking_aisle",
        "surface": "asphalt",
        "@geometry": "center"
      },
      "geometry": {
        "type": "Point",
        "coordinates": [
          -119.748666,
          34.4388626
        ]
      },
      "id": "way/233698167"
    },